{
"type": "FeatureCollection",
"color": "#F2EE92",
"crs": { "type": "name", "properties": { "name": "urn:ogc:def:crs:OGC:1.3:CRS84" } },
                                                                                                                                  
"features": [
{ "type": "Feature", "properties": { "Name": "Teatro alla Scala", "search": "scala", "description": null, "timestamp": null, "begin": null, "end": null, "altitudeMode": null, "tessellate": -1, "extrude": -1, "visibility": -1, "drawOrder": null, "icon": null }, "geometry": { "type": "Point", "coordinates": [ 9.189551199999983, 45.4674021, 0.0 ] } },
{ "type": "Feature", "properties": { "Name": "Auditorium San Fedele", "search": "san fedele", "description": null, "timestamp": null, "begin": null, "end": null, "altitudeMode": null, "tessellate": -1, "extrude": -1, "visibility": -1, "drawOrder": null, "icon": null }, "geometry": { "type": "Point", "coordinates": [ 9.191911800000071, 45.466456699999988, 0.0 ] } },
{ "type": "Feature", "properties": { "Name": "Sala Verdi Del Conservatorio", "search": "sala verdi", "description": null, "timestamp": null, "begin": null, "end": null, "altitudeMode": null, "tessellate": -1, "extrude": -1, "visibility": -1, "drawOrder": null, "icon": null }, "geometry": { "type": "Point", "coordinates": [ 9.203292599999941, 45.46507, 0.0 ] } },
{ "type": "Feature", "properties": { "Name": "Teatro dal Verme", "search": "verme", "description": null, "timestamp": null, "begin": null, "end": null, "altitudeMode": null, "tessellate": -1, "extrude": -1, "visibility": -1, "drawOrder": null, "icon": null }, "geometry": { "type": "Point", "coordinates": [ 9.181062, 45.4672423, 0.0 ] } },
{ "type": "Feature", "properties": { "Name": "Teatro Nazionale CheBanca!", "search": "chebanca", "description": null, "timestamp": null, "begin": null, "end": null, "altitudeMode": null, "tessellate": -1, "extrude": -1, "visibility": -1, "drawOrder": null, "icon": null }, "geometry": { "type": "Point", "coordinates": [ 9.1543514, 45.466863599999989, 0.0 ] } },
{ "type": "Feature", "properties": { "Name": "Auditorium Giorgio Gaber", "search": "gaber", "description": null, "timestamp": null, "begin": null, "end": null, "altitudeMode": null, "tessellate": -1, "extrude": -1, "visibility": -1, "drawOrder": null, "icon": null }, "geometry": { "type": "Point", "coordinates": [ 9.201548799999955, 45.485002400000013, 0.0 ] } },
{ "type": "Feature", "properties": { "Name": "Teatro Manzoni", "search": "manzoni", "description": null, "timestamp": null, "begin": null, "end": null, "altitudeMode": null, "tessellate": -1, "extrude": -1, "visibility": -1, "drawOrder": null, "icon": null }, "geometry": { "type": "Point", "coordinates": [ 9.194203900000048, 45.4711619, 0.0 ] } },
{ "type": "Feature", "properties": { "Name": "Auditorium Fondazione Cariplo", "search": "cariplo", "description": null, "timestamp": null, "begin": null, "end": null, "altitudeMode": null, "tessellate": -1, "extrude": -1, "visibility": -1, "drawOrder": null, "icon": null }, "geometry": { "type": "Point", "coordinates": [ 9.179218600000013, 45.4466502, 0.0 ] } },
{ "type": "Feature", "properties": { "Name": "laVerdi - Orchestra Sinfonica e Coro Sinfonico di Milano Giuseppe Verdi", "search": "laverdi,giuseppe verdi", "description": null, "timestamp": null, "begin": null, "end": null, "altitudeMode": null, "tessellate": -1, "extrude": -1, "visibility": -1, "drawOrder": null, "icon": null }, "geometry": { "type": "Point", "coordinates": [ 9.179121500000065, 45.446609, 0.0 ] } },
{ "type": "Feature", "properties": { "Name": "UniCredit Pavilion", "search": "unicredit,pavillon", "description": null, "timestamp": null, "begin": null, "end": null, "altitudeMode": null, "tessellate": -1, "extrude": -1, "visibility": -1, "drawOrder": null, "icon": null }, "geometry": { "type": "Point", "coordinates": [ 9.191540199999963, 45.4837958, 0.0 ] } }
]
}
