{
"type": "FeatureCollection",
"color": "#F292DC",
"crs": { "type": "name", "properties": { "name": "urn:ogc:def:crs:OGC:1.3:CRS84" } },
                                                                                                                                  
"features": [
{ "type": "Feature", "properties": { "Name": "Alcatraz", "search": "alcatraz", "description": null, "timestamp": null, "begin": null, "end": null, "altitudeMode": null, "tessellate": -1, "extrude": -1, "visibility": -1, "drawOrder": null, "icon": null }, "geometry": { "type": "Point", "coordinates": [ 9.182658, 45.494689, 0.0 ] } },
{ "type": "Feature", "properties": { "Name": "Circolo Magnolia","search": "magnolia", "description": null, "timestamp": null, "begin": null, "end": null, "altitudeMode": null, "tessellate": -1, "extrude": -1, "visibility": -1, "drawOrder": null, "icon": null }, "geometry": { "type": "Point", "coordinates": [ 9.285913899999969, 45.463739, 0.0 ] } },
{ "type": "Feature", "properties": { "Name": "Cascina Martesana", "search": "martesana", "description": null, "timestamp": null, "begin": null, "end": null, "altitudeMode": null, "tessellate": -1, "extrude": -1, "visibility": -1, "drawOrder": null, "icon": null }, "geometry": { "type": "Point", "coordinates": [ 9.22921, 45.503462, 0.0 ] } },
{ "type": "Feature", "properties": { "Name": "Serraglio", "search": "serraglio", "description": null, "timestamp": null, "begin": null, "end": null, "altitudeMode": null, "tessellate": -1, "extrude": -1, "visibility": -1, "drawOrder": null, "icon": null }, "geometry": { "type": "Point", "coordinates": [ 9.2426587, 45.4738848, 0.0 ] } },
{ "type": "Feature", "properties": { "Name": "Leoncavallo Spazio Pubblico Autogestito","search": "leoncavallo,leonca", "description": null, "timestamp": null, "begin": null, "end": null, "altitudeMode": null, "tessellate": -1, "extrude": -1, "visibility": -1, "drawOrder": null, "icon": null }, "geometry": { "type": "Point", "coordinates": [ 9.20812, 45.501362, 0.0 ] } },
{ "type": "Feature", "properties": { "Name": "BASE Milano (Officine Ansaldo)", "search": "base,basemilano","description": null, "timestamp": null, "begin": null, "end": null, "altitudeMode": null, "tessellate": -1, "extrude": -1, "visibility": -1, "drawOrder": null, "icon": null }, "geometry": { "type": "Point", "coordinates": [ 9.1638878, 45.4523394, 0.0 ] } },
{ "type": "Feature", "properties": { "Name": "mare culturale urbano", "search": "mare,mareculturale","description": null, "timestamp": null, "begin": null, "end": null, "altitudeMode": null, "tessellate": -1, "extrude": -1, "visibility": -1, "drawOrder": null, "icon": null }, "geometry": { "type": "Point", "coordinates": [ 9.123842500000023, 45.4686938, 0.0 ] } },
{ "type": "Feature", "properties": { "Name": "Fabrique", "search": "fabrique","description": null, "timestamp": null, "begin": null, "end": null, "altitudeMode": null, "tessellate": -1, "extrude": -1, "visibility": -1, "drawOrder": null, "icon": null }, "geometry": { "type": "Point", "coordinates": [ 9.252349399999957, 45.4521385, 0.0 ] } },
{ "type": "Feature", "properties": { "Name": "Santeria Social Club", "search": "santeria","description": null, "timestamp": null, "begin": null, "end": null, "altitudeMode": null, "tessellate": -1, "extrude": -1, "visibility": -1, "drawOrder": null, "icon": null }, "geometry": { "type": "Point", "coordinates": [ 9.188346899999942, 45.445627599999987, 0.0 ] } },
{ "type": "Feature", "properties": { "Name": "La Fabbrica del Vapore", "search": "fabbrica del vapore,fabbricadelvapore,vapore", "description": null, "timestamp": null, "begin": null, "end": null, "altitudeMode": null, "tessellate": -1, "extrude": -1, "visibility": -1, "drawOrder": null, "icon": null }, "geometry": { "type": "Point", "coordinates": [ 9.174880300000041, 45.485111399999987, 0.0 ] } },
{ "type": "Feature", "properties": { "Name": "DIVINA", "search": "divina","description": null, "timestamp": null, "begin": null, "end": null, "altitudeMode": null, "tessellate": -1, "extrude": -1, "visibility": -1, "drawOrder": null, "icon": null }, "geometry": { "type": "Point", "coordinates": [ 9.184041799999932, 45.4568571, 0.0 ] } },
{ "type": "Feature", "properties": { "Name": "Atomic Bar", "search": "atomic bar,atomicbar","description": null, "timestamp": null, "begin": null, "end": null, "altitudeMode": null, "tessellate": -1, "extrude": -1, "visibility": -1, "drawOrder": null, "icon": null }, "geometry": { "type": "Point", "coordinates": [ 9.202999099999943, 45.4791195, 0.0 ] } },
{ "type": "Feature", "properties": { "Name": "Plastic", "search": "plastic","description": null, "timestamp": null, "begin": null, "end": null, "altitudeMode": null, "tessellate": -1, "extrude": -1, "visibility": -1, "drawOrder": null, "icon": null }, "geometry": { "type": "Point", "coordinates": [ 9.2060189, 45.4381796, 0.0 ] } },
{ "type": "Feature", "properties": { "Name": "Hollywood", "search": "hollywood","description": null, "timestamp": null, "begin": null, "end": null, "altitudeMode": null, "tessellate": -1, "extrude": -1, "visibility": -1, "drawOrder": null, "icon": null }, "geometry": { "type": "Point", "coordinates": [ 9.187153, 45.482627, 0.0 ] } },
{ "type": "Feature", "properties": { "Name": "Tocqueville 13","search": "tocqueville", "description": null, "timestamp": null, "begin": null, "end": null, "altitudeMode": null, "tessellate": -1, "extrude": -1, "visibility": -1, "drawOrder": null, "icon": null }, "geometry": { "type": "Point", "coordinates": [ 9.1864991, 45.4824288, 0.0 ] } },
{ "type": "Feature", "properties": { "Name": "Old Fashion Club", "search": "old fashion,oldfashion","description": null, "timestamp": null, "begin": null, "end": null, "altitudeMode": null, "tessellate": -1, "extrude": -1, "visibility": -1, "drawOrder": null, "icon": null }, "geometry": { "type": "Point", "coordinates": [ 9.1733534, 45.4726118, 0.0 ] } },
{ "type": "Feature", "properties": { "Name": "ZOG", "search": "zog","description": null, "timestamp": null, "begin": null, "end": null, "altitudeMode": null, "tessellate": -1, "extrude": -1, "visibility": -1, "drawOrder": null, "icon": null }, "geometry": { "type": "Point", "coordinates": [ 9.174014100000022, 45.4514432, 0.0 ] } },
{ "type": "Feature", "properties": { "Name": "Byblos Milano Club","search": "byblos", "description": null, "timestamp": null, "begin": null, "end": null, "altitudeMode": null, "tessellate": -1, "extrude": -1, "visibility": -1, "drawOrder": null, "icon": null }, "geometry": { "type": "Point", "coordinates": [ 9.173705, 45.485953, 0.0 ] } },
{ "type": "Feature", "properties": { "Name": "Armani\/Prive", "search": "armani","description": null, "timestamp": null, "begin": null, "end": null, "altitudeMode": null, "tessellate": -1, "extrude": -1, "visibility": -1, "drawOrder": null, "icon": null }, "geometry": { "type": "Point", "coordinates": [ 9.1926999, 45.4709693, 0.0 ] } },
{ "type": "Feature", "properties": { "Name": "Dude Club", "search": "dude,dudeclub","description": null, "timestamp": null, "begin": null, "end": null, "altitudeMode": null, "tessellate": -1, "extrude": -1, "visibility": -1, "drawOrder": null, "icon": null }, "geometry": { "type": "Point", "coordinates": [ 9.2299693, 45.438387, 0.0 ] } },
{ "type": "Feature", "properties": { "Name": "Lo-Fi", "search": "lo-fi,lofi","description": null, "timestamp": null, "begin": null, "end": null, "altitudeMode": null, "tessellate": -1, "extrude": -1, "visibility": -1, "drawOrder": null, "icon": null }, "geometry": { "type": "Point", "coordinates": [ 9.237037099999952, 45.441225, 0.0 ] } },
{ "type": "Feature", "properties": { "Name": "Upcycle Milano Bike Cafè", "search": "upcycle","description": null, "timestamp": null, "begin": null, "end": null, "altitudeMode": null, "tessellate": -1, "extrude": -1, "visibility": -1, "drawOrder": null, "icon": null }, "geometry": { "type": "Point", "coordinates": [ 9.226315399999976, 45.4837059, 0.0 ] } },
{ "type": "Feature", "properties": { "Name": "Gattò - Robe e Cucina", "search": "gattò","description": null, "timestamp": null, "begin": null, "end": null, "altitudeMode": null, "tessellate": -1, "extrude": -1, "visibility": -1, "drawOrder": null, "icon": null }, "geometry": { "type": "Point", "coordinates": [ 9.214997499999981, 45.4700029, 0.0 ] } },
{ "type": "Feature", "properties": { "Name": "Standards Studio", "search": "standards studio","description": null, "timestamp": null, "begin": null, "end": null, "altitudeMode": null, "tessellate": -1, "extrude": -1, "visibility": -1, "drawOrder": null, "icon": null }, "geometry": { "type": "Point", "coordinates": [ 9.171703900000011, 45.499258299999987, 0.0 ] } },
{ "type": "Feature", "properties": { "Name": "Blue Note Milano", "search": "blue note,bluenote","description": null, "timestamp": null, "begin": null, "end": null, "altitudeMode": null, "tessellate": -1, "extrude": -1, "visibility": -1, "drawOrder": null, "icon": null }, "geometry": { "type": "Point", "coordinates": [ 9.1888209, 45.4894158, 0.0 ] } },
{ "type": "Feature", "properties": { "Name": "Discoteca Tunnell", "search": "tunnell","description": null, "timestamp": null, "begin": null, "end": null, "altitudeMode": null, "tessellate": -1, "extrude": -1, "visibility": -1, "drawOrder": null, "icon": null }, "geometry": { "type": "Point", "coordinates": [ 9.209068500000058, 45.492213799999988, 0.0 ] } },
{ "type": "Feature", "properties": { "Name": "Biko Club", "search": "biko","description": null, "timestamp": null, "begin": null, "end": null, "altitudeMode": null, "tessellate": -1, "extrude": -1, "visibility": -1, "drawOrder": null, "icon": null }, "geometry": { "type": "Point", "coordinates": [ 9.153902799999969, 45.4421122, 0.0 ] } },
{ "type": "Feature", "properties": { "Name": "Rock'N'Roll", "search": "rock'n'roll,rocknroll","description": null, "timestamp": null, "begin": null, "end": null, "altitudeMode": null, "tessellate": -1, "extrude": -1, "visibility": -1, "drawOrder": null, "icon": null }, "geometry": { "type": "Point", "coordinates": [ 9.207512299999962, 45.4925278, 0.0 ] } },
{ "type": "Feature", "properties": { "Name": "La Buca Di San Vincenzo", "search": "san vincenzo,sanvincenzo","description": null, "timestamp": null, "begin": null, "end": null, "altitudeMode": null, "tessellate": -1, "extrude": -1, "visibility": -1, "drawOrder": null, "icon": null }, "geometry": { "type": "Point", "coordinates": [ 9.1745588, 45.458505, 0.0 ] } },
{ "type": "Feature", "properties": { "Name": "Masada", "search": "masada","description": null, "timestamp": null, "begin": null, "end": null, "altitudeMode": null, "tessellate": -1, "extrude": -1, "visibility": -1, "drawOrder": null, "icon": null }, "geometry": { "type": "Point", "coordinates": [ 9.142978, 45.495927, 0.0 ] } },
{ "type": "Feature", "properties": { "Name": "Arci l'Impegno", "search": "arci,impegno","description": null, "timestamp": null, "begin": null, "end": null, "altitudeMode": null, "tessellate": -1, "extrude": -1, "visibility": -1, "drawOrder": null, "icon": null }, "geometry": { "type": "Point", "coordinates": [ 9.150399800000059, 45.4930123, 0.0 ] } },
{ "type": "Feature", "properties": { "Name": "Cascina Autogestita Torchiera senzacqua", "search": "torchiera","description": null, "timestamp": null, "begin": null, "end": null, "altitudeMode": null, "tessellate": -1, "extrude": -1, "visibility": -1, "drawOrder": null, "icon": null }, "geometry": { "type": "Point", "coordinates": [ 9.122262200000023, 45.5047009, 0.0 ] } },
{ "type": "Feature", "properties": { "Name": "Macao", "search": "macao","description": null, "timestamp": null, "begin": null, "end": null, "altitudeMode": null, "tessellate": -1, "extrude": -1, "visibility": -1, "drawOrder": null, "icon": null }, "geometry": { "type": "Point", "coordinates": [ 9.224346, 45.457961399999988, 0.0 ] } },
{ "type": "Feature", "properties": { "Name": "Magazzini Generali", "search": "magazzini generali,magazzinigenerali","description": null, "timestamp": null, "begin": null, "end": null, "altitudeMode": null, "tessellate": -1, "extrude": -1, "visibility": -1, "drawOrder": null, "icon": null }, "geometry": { "type": "Point", "coordinates": [ 9.195281, 45.444125, 0.0 ] } },
{ "type": "Feature", "properties": { "Name": "Cox 18", "search": "cox,cox18","description": null, "timestamp": null, "begin": null, "end": null, "altitudeMode": null, "tessellate": -1, "extrude": -1, "visibility": -1, "drawOrder": null, "icon": null }, "geometry": { "type": "Point", "coordinates": [ 9.177135200000066, 45.4458986, 0.0 ] } },
{ "type": "Feature", "properties": { "Name": "Spirit de Milan", "search": "spirit","description": null, "timestamp": null, "begin": null, "end": null, "altitudeMode": null, "tessellate": -1, "extrude": -1, "visibility": -1, "drawOrder": null, "icon": null }, "geometry": { "type": "Point", "coordinates": [ 9.159658, 45.506997299999988, 0.0 ] } },
{ "type": "Feature", "properties": { "Name": "La Balera dell'Ortica", "search": "ortica","description": null, "timestamp": null, "begin": null, "end": null, "altitudeMode": null, "tessellate": -1, "extrude": -1, "visibility": -1, "drawOrder": null, "icon": null }, "geometry": { "type": "Point", "coordinates": [ 9.240585600000031, 45.4703829, 0.0 ] } },
{ "type": "Feature", "properties": { "Name": "La Scighera", "search": "schighera","description": null, "timestamp": null, "begin": null, "end": null, "altitudeMode": null, "tessellate": -1, "extrude": -1, "visibility": -1, "drawOrder": null, "icon": null }, "geometry": { "type": "Point", "coordinates": [ 9.161909700000024, 45.5029294, 0.0 ] } },
{ "type": "Feature", "properties": { "Name": "Circolo Arci Bellezza", "search": "arci bellezza","description": null, "timestamp": null, "begin": null, "end": null, "altitudeMode": null, "tessellate": -1, "extrude": -1, "visibility": -1, "drawOrder": null, "icon": null }, "geometry": { "type": "Point", "coordinates": [ 9.19539450000002, 45.4487619, 0.0 ] } }
]
}
